City_ID,City,Country,Lat,Lng,Max Temp,Humidity,Cloudiness,Wind Speed,Current Description
0,Mar Del Plata,AR,-38.0023,-57.5575,52.09,65,40,7.0,scattered clouds
1,Busselton,AU,-33.65,115.3333,53.65,85,0,5.21,clear sky
2,Kibaya,TZ,-5.3,36.5667,60.24,93,100,4.9,overcast clouds
3,Jucas,BR,-6.5253,-39.5275,76.66,74,57,5.68,broken clouds
4,Rikitea,PF,-23.1203,-134.9692,74.93,76,24,5.82,light rain
5,Tigil,RU,57.8,158.6667,44.08,91,100,6.93,overcast clouds
6,Timbiqui,CO,2.7717,-77.6654,78.49,86,96,5.88,light rain
7,Longyearbyen,SJ,78.2186,15.6401,42.64,75,75,6.91,broken clouds
8,Waingapu,ID,-9.6567,120.2641,77.31,88,100,7.23,moderate rain
9,Havre-Saint-Pierre,CA,50.2334,-63.5986,57.56,54,0,20.71,clear sky
10,Ponta Do Sol,PT,32.6667,-17.1,67.71,71,100,4.83,overcast clouds
11,Broken Hill,AU,-31.95,141.4333,56.89,77,90,4.97,overcast clouds
12,Ushuaia,AR,-54.8,-68.3,40.66,75,40,36.82,scattered clouds
13,Kuliyapitiya,LK,7.4688,80.0401,75.63,94,93,5.37,overcast clouds
14,Mataura,NZ,-46.1927,168.8643,41.49,96,24,2.19,few clouds
15,Bobon,PH,12.5246,124.5636,76.78,92,96,5.48,overcast clouds
16,Hermanus,ZA,-34.4187,19.2345,58.8,87,80,6.89,light rain
17,Hilo,US,19.7297,-155.09,90.28,69,0,12.66,clear sky
18,Cape Town,ZA,-33.9258,18.4232,61.21,94,100,12.66,moderate rain
19,Hobart,AU,-42.8794,147.3294,46.27,96,20,9.22,few clouds
20,Berdigestyakh,RU,62.0989,126.6992,36.46,85,100,8.19,overcast clouds
21,Saint George,US,37.1041,-113.5841,94.42,11,0,3.44,clear sky
22,Jamestown,US,42.097,-79.2353,76.01,51,0,11.5,clear sky
23,Marawi,PH,7.9986,124.2928,68.27,95,87,2.48,overcast clouds
24,Bluff,NZ,-46.6,168.3333,41.81,71,78,5.7,broken clouds
25,Tasiilaq,GL,65.6145,-37.6368,35.76,86,100,1.52,overcast clouds
26,Sur,OM,22.5667,59.5289,90.64,41,0,13.44,clear sky
27,Faanui,PF,-16.4833,-151.75,80.51,66,6,12.95,clear sky
28,Barabinsk,RU,55.3571,78.357,61.34,58,0,7.7,clear sky
29,Albany,US,42.6001,-73.9662,76.46,46,99,5.35,overcast clouds
30,Kangaatsiaq,GL,68.3065,-53.4641,33.64,69,100,10.02,light snow
31,Guerrero Negro,MX,27.9769,-114.0611,76.03,45,0,12.77,clear sky
32,Bansbaria,IN,22.9719,88.3994,78.69,67,38,7.09,scattered clouds
33,Kapaa,US,22.0752,-159.319,80.58,74,0,11.5,clear sky
34,Mount Isa,AU,-20.7333,139.5,51.57,82,0,0.0,clear sky
35,Bangkok,TH,13.75,100.5167,81.93,97,69,5.37,broken clouds
36,Mae Sai,TH,20.4335,99.8762,71.51,97,100,1.14,overcast clouds
37,Kathu,TH,7.9178,98.3332,82.22,77,96,12.3,overcast clouds
38,Punta Arenas,CL,-53.15,-70.9167,41.11,81,20,13.8,few clouds
39,Tuktoyaktuk,CA,69.4541,-133.0374,30.2,86,75,8.05,fog
40,Narrabri,AU,-30.3167,149.7833,52.52,90,12,1.99,few clouds
41,Ribeira Grande,PT,38.5167,-28.7,64.8,77,75,9.22,broken clouds
42,Kruisfontein,ZA,-34.0033,24.7314,58.44,85,6,14.07,light rain
43,Huejuquilla El Alto,MX,22.6,-103.8667,88.57,7,0,4.23,clear sky
44,Pangody,RU,65.85,74.4859,43.39,61,95,9.8,overcast clouds
45,Port Lincoln,AU,-34.7333,135.8667,57.04,89,9,7.14,clear sky
46,Poya,NC,-21.35,165.15,73.62,76,24,1.3,few clouds
47,Matara,LK,5.9485,80.5353,77.79,90,100,7.34,overcast clouds
48,Lebu,CL,-37.6167,-73.65,50.34,78,31,17.2,scattered clouds
49,Yulara,AU,-25.2406,130.9889,55.0,68,2,6.55,clear sky
50,Lingao,CN,19.9103,109.6859,77.94,90,100,4.61,overcast clouds
51,Ahipara,NZ,-35.1667,173.1667,58.57,65,100,4.41,overcast clouds
52,Voi,KE,-3.3945,38.563,71.17,87,99,10.16,overcast clouds
53,Ariquemes,BR,-9.9133,-63.0408,81.41,66,71,2.04,broken clouds
54,Muli,MV,2.9167,73.5667,82.24,74,88,7.61,overcast clouds
55,Yellowknife,CA,62.456,-114.3525,57.72,30,20,9.22,few clouds
56,San Cristobal,VE,7.7669,-72.225,77.18,69,100,4.81,overcast clouds
57,Esperance,AU,-33.8667,121.9,57.4,83,100,8.16,overcast clouds
58,Upernavik,GL,72.7868,-56.1549,25.32,63,85,9.64,overcast clouds
59,Cabadiangan,PH,9.7531,122.4739,78.69,87,73,2.44,broken clouds
60,Georgetown,MY,5.4112,100.3354,78.73,93,20,1.14,few clouds
61,Sitka,US,57.0531,-135.33,53.49,62,40,11.5,scattered clouds
62,Puerto Ayora,EC,-0.7393,-90.3518,75.16,88,68,3.0,broken clouds
63,Salalah,OM,17.0151,54.0924,84.29,79,40,5.75,scattered clouds
64,Port Alfred,ZA,-33.5906,26.891,59.18,88,1,1.99,clear sky
65,Cherskiy,RU,68.75,161.3,39.94,74,62,13.69,broken clouds
66,Shanghai,CN,31.2222,121.4581,68.94,69,0,4.47,moderate rain
67,Katsuura,JP,35.1333,140.3,66.6,80,23,4.92,few clouds
68,Werda,BW,-25.2667,23.2833,63.55,37,0,1.77,clear sky
69,Mansoa,GW,12.0733,-15.3189,79.0,67,97,8.48,overcast clouds
70,Qaanaaq,GL,77.484,-69.3632,20.64,82,50,4.88,scattered clouds
71,Willowmore,ZA,-33.2926,23.4895,52.84,88,37,4.05,scattered clouds
72,Beatrice,US,40.2681,-96.747,52.45,100,100,23.02,heavy intensity rain
73,Inuvik,CA,68.3499,-133.7218,56.16,37,40,6.91,scattered clouds
74,Ornskoldsvik,SE,63.2909,18.7153,45.55,100,100,3.44,fog
75,Chapais,CA,49.7834,-74.8492,62.38,45,100,5.84,overcast clouds
76,Manta,EC,-0.95,-80.7333,78.58,73,20,11.5,few clouds
77,Roma,US,43.2128,-75.4557,75.72,46,20,9.22,few clouds
78,Castro,BR,-24.7911,-50.0119,58.28,71,0,4.83,clear sky
79,Fairlie,GB,55.756,-4.8556,50.4,86,7,1.01,moderate rain
80,Arraial Do Cabo,BR,-22.9661,-42.0278,73.26,73,0,11.5,clear sky
81,Pisco,PE,-13.7,-76.2167,66.25,72,0,8.05,clear sky
82,Impfondo,CG,1.6381,18.0667,71.26,96,99,1.54,moderate rain
83,Rocha,UY,-34.4833,-54.3333,52.29,93,100,16.75,overcast clouds
84,Vaini,TO,-21.2,-175.2,80.76,78,40,8.05,scattered clouds
85,Bubaque,GW,11.2833,-15.8333,78.19,77,97,6.76,overcast clouds
86,Gohpur,IN,26.8833,93.6333,75.4,86,96,2.44,overcast clouds
87,Laguna De Perlas,NI,12.3429,-83.6712,82.49,70,100,8.37,overcast clouds
88,Pevek,RU,69.7008,170.3133,32.41,92,31,9.98,scattered clouds
89,Ascension,US,30.2169,-90.9001,76.26,88,40,8.05,light rain
90,Bethel,US,41.3712,-73.414,73.65,53,0,11.5,clear sky
91,Bredasdorp,ZA,-34.5322,20.0403,58.71,94,92,2.66,light rain
92,Korla,CN,41.7597,86.1469,82.18,17,100,5.57,overcast clouds
93,Chipinge,ZW,-20.1883,32.6236,57.78,64,0,1.99,clear sky
94,Ballina,AU,-28.8667,153.5667,59.77,92,55,6.31,broken clouds
95,Ortakoy,TR,38.7373,34.0387,50.25,64,1,1.32,clear sky
96,Guayaramerin,BO,-10.8368,-65.3614,88.07,48,16,1.99,few clouds
97,Peterhead,GB,57.5058,-1.7981,52.2,72,8,14.09,clear sky
98,Huarmey,PE,-10.0681,-78.1522,68.04,77,16,8.46,few clouds
99,Comodoro Rivadavia,AR,-45.8667,-67.5,42.66,42,0,6.91,clear sky
100,Cayenne,GF,4.9333,-52.3333,84.24,14,0,9.22,clear sky
101,Ilulissat,GL,69.2167,-51.1,39.22,41,40,9.22,scattered clouds
102,Vanimo,PG,-2.6741,141.3028,78.33,83,100,0.54,overcast clouds
103,Goderich,CA,43.7501,-81.7165,64.72,77,100,11.5,overcast clouds
104,Huilong,CN,31.8111,121.655,68.94,77,100,5.44,moderate rain
105,Grand Gaube,MU,-20.0064,57.6608,71.38,77,23,1.99,few clouds
106,Muros,ES,42.7762,-9.0603,61.09,74,19,11.86,few clouds
107,Chuy,UY,-33.6971,-53.4616,59.54,98,100,6.53,overcast clouds
108,Camopi,GF,3.1655,-52.3158,76.26,97,88,2.62,overcast clouds
109,Hithadhoo,MV,-0.6,73.0833,83.08,65,100,3.74,overcast clouds
110,Scarborough,GB,54.2797,-0.4044,54.34,75,35,4.0,scattered clouds
111,Lorengau,PG,-2.0226,147.2712,80.01,80,100,1.59,overcast clouds
112,Constantine,DZ,36.365,6.6147,62.01,82,75,4.61,broken clouds
113,Barrow,US,71.2906,-156.7887,33.82,86,20,14.97,few clouds
114,Varzea Grande,BR,-15.6467,-56.1325,87.67,42,20,4.61,few clouds
115,Kodiak,US,57.79,-152.4072,49.51,76,40,8.05,scattered clouds
116,Iqaluit,CA,63.7506,-68.5145,17.33,72,75,27.63,broken clouds
117,Grindavik,IS,63.8424,-22.4338,46.87,81,75,6.91,broken clouds
118,Talnakh,RU,69.4865,88.3972,29.21,91,91,3.71,overcast clouds
119,San Quintin,MX,30.4833,-115.95,68.43,59,0,9.22,clear sky
120,Eastbourne,GB,50.7687,0.2845,57.72,87,16,5.01,few clouds
121,Praia Da Vitoria,PT,38.7333,-27.0667,63.75,77,20,7.4,few clouds
122,Batagay,RU,67.6333,134.6333,34.61,79,100,10.42,light snow
123,Codrington,AU,-38.2667,141.9667,56.91,87,99,10.87,overcast clouds
124,Kloulklubed,PW,7.0419,134.2556,72.1,86,100,9.4,overcast clouds
125,Sabla,NG,12.7525,4.7077,94.23,25,2,6.91,clear sky
126,Miramar,US,25.9873,-80.2323,88.02,67,75,18.41,broken clouds
127,Takoradi,GH,4.8845,-1.7554,78.87,82,100,6.17,light rain
128,Avarua,CK,-21.2078,-159.775,82.45,74,9,5.75,clear sky
129,Shimoda,JP,34.6667,138.95,66.58,86,92,4.56,overcast clouds
130,Fuxin,CN,42.0156,121.6589,57.94,55,99,5.17,overcast clouds
131,Viedma,AR,-40.8135,-62.9967,44.49,54,1,7.52,clear sky
132,Gornopravdinsk,RU,60.05,69.9,62.24,80,100,9.08,overcast clouds
133,Rundu,NA,-17.9333,19.7667,55.63,37,0,3.8,clear sky
134,San Carlos De Bariloche,AR,-41.1456,-71.3082,38.95,45,20,3.44,few clouds
135,Valleyview,CA,55.0667,-117.2859,60.84,41,100,5.75,overcast clouds
136,Burnie,AU,-41.0667,145.9167,56.95,89,100,10.67,overcast clouds
137,Leningradskiy,RU,69.3833,178.4167,47.62,62,100,5.79,overcast clouds
138,Cidreira,BR,-30.1811,-50.2056,66.25,85,8,8.93,clear sky
139,Los Llanos De Aridane,ES,28.6585,-17.9182,64.15,79,75,14.97,broken clouds
140,Chokurdakh,RU,70.6333,147.9167,30.13,83,91,9.33,overcast clouds
141,Araouane,ML,18.9048,-3.5265,86.61,37,92,11.88,overcast clouds
142,Callaguip,PH,18.0714,120.4867,77.02,100,40,3.44,scattered clouds
143,Lebanon,US,36.2081,-86.2911,77.45,79,100,16.26,overcast clouds
144,Kamenka,RU,51.3223,42.7678,44.85,64,100,3.11,overcast clouds
145,Blackwater,AU,-23.5833,148.8833,60.66,88,6,3.29,clear sky
146,Urucui,BR,-7.2294,-44.5561,83.03,51,57,10.8,broken clouds
147,Darnah,LY,32.767,22.6367,72.1,48,0,3.47,clear sky
148,Inyonga,TZ,-6.7167,32.0667,66.58,64,79,0.65,broken clouds
149,Carnarvon,AU,-24.8667,113.6333,71.11,63,100,7.34,overcast clouds
150,Caceres,ES,39.522,-6.3748,62.69,37,9,4.38,clear sky
151,Constitucion,CL,-35.3333,-72.4167,55.27,65,24,12.57,few clouds
152,Corlu,TR,41.1592,27.8,60.78,63,0,5.75,clear sky
153,Aklavik,CA,68.2191,-135.0107,46.2,59,72,1.25,broken clouds
154,Aitape,PG,-3.1374,142.3475,78.13,86,100,1.74,overcast clouds
155,Shelburne,CA,44.0787,-80.2041,65.23,47,100,9.48,overcast clouds
156,Olga,RU,43.7444,135.2892,49.32,91,100,7.96,light rain
157,Saldanha,ZA,-33.0117,17.9442,60.85,89,0,5.03,clear sky
158,Lukulu,ZM,-14.3707,23.242,56.32,40,0,2.71,clear sky
159,Nieuwpoort,BE,51.1244,2.7735,58.23,88,100,11.5,overcast clouds
160,Atuona,PF,-9.8,-139.0333,78.46,76,20,18.63,few clouds
161,Lompoc,US,34.6391,-120.4579,75.09,61,0,11.5,clear sky
162,Teahupoo,PF,-17.8333,-149.2667,76.96,74,45,10.09,scattered clouds
163,Payo,ID,-3.7508,103.6372,71.1,97,100,2.59,overcast clouds
164,Manbij,SY,36.5281,37.9549,71.2,38,5,10.18,clear sky
165,Gap,FR,44.6667,6.0,43.83,81,58,6.22,broken clouds
166,Oranjemund,NA,-28.55,16.4333,54.91,93,4,3.83,clear sky
167,Beringovskiy,RU,63.05,179.3167,44.56,66,77,5.37,broken clouds
168,Zhezkazgan,KZ,47.8043,67.7144,71.78,28,0,10.38,clear sky
169,Deputatskiy,RU,69.3,139.9,26.85,89,99,6.13,overcast clouds
170,Ahar,IR,38.4774,47.0699,48.04,82,98,6.78,overcast clouds
171,Acapulco,MX,16.8634,-99.8901,85.82,70,100,5.75,overcast clouds
172,Batagay-Alyta,RU,67.8006,130.4114,26.64,83,98,10.92,overcast clouds
173,Konstantinovsk,RU,47.5828,41.0922,54.82,76,63,5.3,broken clouds
174,Kulhudhuffushi,MV,6.6221,73.07,82.02,78,100,11.5,overcast clouds
175,Mattru,SL,7.6244,-11.8332,72.46,99,100,4.79,moderate rain
176,Butaritari,KI,3.0707,172.7902,81.61,75,100,18.43,overcast clouds
177,Lima,PE,-12.0432,-77.0282,61.39,40,100,6.91,overcast clouds
178,Oksfjord,NO,70.2396,22.3479,55.58,56,9,10.92,clear sky
179,Sibu,MY,2.3,111.8167,73.71,100,40,5.75,scattered clouds
180,Nishihara,JP,26.1842,127.7558,74.68,100,100,10.36,light rain
181,Mragowo,PL,53.8644,21.3051,51.8,95,91,4.59,overcast clouds
182,Geraldton,AU,-28.7667,114.6,61.21,77,100,10.36,overcast clouds
183,Trebinje,BA,42.7119,18.3442,70.16,43,0,11.5,clear sky
184,Dikson,RU,73.5069,80.5464,17.69,95,70,3.91,broken clouds
185,Durazno,UY,-33.4131,-56.5006,49.71,92,100,22.37,overcast clouds
186,Leh,IN,34.1667,77.5833,48.94,51,88,3.2,overcast clouds
187,Tumut,AU,-35.3,148.2167,52.81,79,100,1.45,light rain
188,Haines Junction,CA,60.7522,-137.5108,57.15,35,97,8.05,overcast clouds
189,Cabo San Lucas,MX,22.8909,-109.9124,85.6,66,8,11.56,clear sky
190,New Norfolk,AU,-42.7826,147.0587,45.91,88,32,2.95,scattered clouds
191,Tete,MZ,-16.1564,33.5867,64.49,82,20,1.14,few clouds
192,Khani,GE,41.9563,42.9566,42.37,91,13,5.26,few clouds
193,Norman Wells,CA,65.282,-126.8329,59.04,44,75,9.22,broken clouds
194,Uhlirske Janovice,CZ,49.8802,15.0648,56.79,79,5,7.36,clear sky
195,Zelenoborskiy,RU,66.845,32.3622,39.97,79,93,4.76,overcast clouds
196,Lardos,GR,36.0942,28.0157,71.94,61,1,8.16,clear sky
197,Sumbe,AO,-11.2061,13.8437,71.1,86,3,4.0,clear sky
198,Kavieng,PG,-2.5744,150.7967,81.1,75,100,7.87,overcast clouds
199,Souillac,MU,-20.5167,57.5167,68.38,94,40,3.44,scattered clouds
200,Adrar,MR,20.5022,-10.0711,92.01,11,4,7.45,clear sky
201,Manavalakurichi,IN,8.1333,77.3,79.5,89,13,10.76,few clouds
202,Sao Filipe,CV,14.8961,-24.4956,71.78,77,0,11.45,clear sky
203,Banda Aceh,ID,5.5577,95.3222,79.97,77,96,6.11,overcast clouds
204,Coahuayana,MX,18.7333,-103.6833,87.67,51,100,7.65,overcast clouds
205,Peskovka,RU,59.0448,52.3606,42.49,90,100,2.98,overcast clouds
206,Lavumisa,SZ,-27.31,31.892,62.65,76,0,3.38,clear sky
207,Joshimath,IN,30.5667,79.5667,58.15,56,7,4.0,clear sky
208,Fairbanks,US,64.8378,-147.7164,65.48,39,75,13.8,broken clouds
209,Badajoz,ES,38.6667,-6.1667,65.64,27,72,5.3,broken clouds
210,Nyuksenitsa,RU,60.4128,44.2397,37.33,99,100,2.73,overcast clouds
211,Port-Gentil,GA,-0.7193,8.7815,76.96,83,20,10.36,few clouds
212,Hofn,IS,64.2539,-15.2082,43.7,85,97,3.44,overcast clouds
213,Beihai,CN,21.4833,109.1,79.81,89,100,7.27,overcast clouds
214,Port Said,EG,31.2565,32.2841,71.58,94,0,8.05,clear sky
215,Alice Springs,AU,-23.7,133.8833,49.55,81,6,5.75,clear sky
216,Rio Gallegos,AR,-51.6226,-69.2181,42.85,70,0,19.57,clear sky
217,Coquimbo,CL,-29.9533,-71.3436,58.73,88,20,12.66,few clouds
218,Tiksi,RU,71.6872,128.8694,22.03,91,100,8.12,overcast clouds
219,Severo-Kurilsk,RU,50.6789,156.125,40.03,96,100,7.7,light rain
220,Khatanga,RU,71.9667,102.5,27.82,88,59,5.26,broken clouds
221,Puerto Del Rosario,ES,28.5004,-13.8627,67.75,73,75,19.57,broken clouds
222,Shambu,ET,9.5667,37.1,53.49,87,89,3.67,light rain
223,Saskylakh,RU,71.9167,114.0833,16.25,97,79,2.8,broken clouds
224,Umuarama,BR,-23.7664,-53.325,68.67,69,0,5.82,clear sky
225,Barguzin,RU,53.6167,109.6167,52.61,48,1,1.61,clear sky
226,Mantua,IT,45.1667,10.7833,74.35,76,4,1.99,clear sky
227,Hobyo,SO,5.3505,48.5268,79.23,82,86,26.71,overcast clouds
228,Rock Sound,BS,24.9,-76.2,78.71,73,49,16.31,scattered clouds
229,Valparaiso,CL,-33.0393,-71.6273,68.23,70,0,11.5,clear sky
230,Katsina,NG,12.9894,7.6006,87.8,8,3,6.15,clear sky
231,Monitos,CO,8.25,-76.05,81.91,84,100,5.3,overcast clouds
232,Shache,CN,38.4167,77.2406,73.0,24,13,4.27,few clouds
233,Marrakesh,MA,31.6315,-8.0083,78.87,34,0,11.5,clear sky
234,Vila Franca Do Campo,PT,37.7167,-25.4333,63.01,69,68,4.74,broken clouds
235,Sovetskiy,RU,61.3614,63.5842,59.94,75,93,9.08,light rain
236,Bulgan,MN,48.8125,103.5347,53.94,42,49,2.84,scattered clouds
237,Manono,CD,-7.3,27.4167,71.01,81,79,2.82,broken clouds
238,Ambahta,IN,29.85,77.3333,80.71,37,0,3.67,clear sky
239,Beyneu,KZ,45.3167,55.2,62.04,46,100,14.92,overcast clouds
240,Novyy Urengoy,RU,66.0833,76.6333,40.06,72,11,7.49,few clouds
241,Victoria,HK,22.2855,114.1577,79.32,94,49,5.99,scattered clouds
242,Mount Gambier,AU,-37.8333,140.7667,55.31,100,100,10.36,overcast clouds
243,Gravdal,NO,68.1214,13.5031,48.09,93,75,8.05,light rain
244,Henties Bay,NA,-22.116,14.2845,59.07,82,0,7.94,clear sky
245,Kungurtug,RU,50.5994,97.5228,57.51,56,87,2.39,overcast clouds
246,Kharitonovo,RU,61.4009,47.4978,40.71,96,93,0.31,light rain
247,Itauna,BR,-20.0753,-44.5764,63.05,63,20,10.0,few clouds
248,Black River,JM,18.0264,-77.8487,86.16,61,54,19.89,broken clouds
249,Port Elizabeth,ZA,-33.918,25.5701,62.89,77,20,18.41,few clouds
250,Camacha,PT,33.0833,-16.3333,62.02,72,75,8.05,broken clouds
251,Port Hardy,CA,50.6996,-127.4199,59.18,58,75,14.97,broken clouds
252,Strelka,RU,58.0728,93.0344,49.35,86,0,4.72,clear sky
253,Shumyachi,RU,53.8583,32.4242,54.48,75,98,6.38,overcast clouds
254,Bambanglipuro,ID,-7.95,110.2833,76.84,88,100,3.91,overcast clouds
255,Ostrovnoy,RU,68.0531,39.5131,33.22,96,10,4.09,clear sky
256,Karpathos,GR,35.507,27.2132,69.76,73,0,4.61,clear sky
257,Necochea,AR,-38.5473,-58.7368,48.58,57,31,12.55,scattered clouds
258,Kaitangata,NZ,-46.2817,169.8464,39.47,83,92,7.72,overcast clouds
259,Cortona,IT,43.2745,11.9871,64.76,76,19,2.66,few clouds
260,Bashmakovo,RU,53.2133,43.0342,40.26,76,95,4.45,overcast clouds
261,Turukhansk,RU,65.8167,87.9833,39.56,82,71,8.68,broken clouds
262,Dauphin,CA,51.1494,-100.0502,73.54,27,75,20.71,broken clouds
263,Kavaratti,IN,10.5669,72.642,83.17,78,54,11.92,broken clouds
264,Tual,ID,-5.6667,132.75,80.71,80,98,6.13,overcast clouds
265,Egvekinot,RU,66.3167,-179.1667,39.6,77,93,7.25,overcast clouds
266,Laguna,US,38.421,-121.4238,102.29,20,0,9.22,clear sky
267,Alofi,NU,-19.0595,-169.9187,80.49,78,75,11.5,broken clouds
268,Mahebourg,MU,-20.4081,57.7,71.26,94,40,3.44,scattered clouds
269,Taoudenni,ML,22.6783,-3.9836,98.64,8,100,3.11,overcast clouds
270,Padang,ID,-0.9492,100.3543,76.93,71,100,4.43,overcast clouds
271,Isangel,VU,-19.55,169.2667,78.91,83,20,4.61,few clouds
272,Channel-Port Aux Basques,CA,47.5702,-59.1367,46.98,72,0,8.86,clear sky
273,Buraydah,SA,26.326,43.975,88.25,16,19,16.62,few clouds
274,Datong,CN,40.0936,113.2914,56.84,25,4,4.05,clear sky
275,East London,ZA,-33.0153,27.9116,63.97,71,5,15.93,clear sky
276,Usogorsk,RU,63.4106,48.6872,46.02,97,100,4.38,light rain
277,Torit,SS,4.4133,32.5678,70.92,79,100,2.3,overcast clouds
278,Vila Velha,BR,-20.3297,-40.2925,74.95,79,0,0.0,clear sky
279,Barra Da Estiva,BR,-13.6261,-41.3269,64.74,79,89,9.13,overcast clouds
280,Zhigansk,RU,66.7697,123.3711,31.96,82,38,22.82,scattered clouds
281,Torbay,CA,47.6666,-52.7314,43.88,56,20,9.22,few clouds
282,Virginia Beach,US,36.8529,-75.978,62.65,93,100,16.11,mist
283,Tomatlan,MX,19.9333,-105.25,90.12,42,0,13.58,clear sky
284,Batemans Bay,AU,-35.7167,150.1833,54.1,84,100,3.67,overcast clouds
285,Catamarca,AR,-28.4696,-65.7852,65.77,53,99,4.0,overcast clouds
286,Qeshm,IR,26.9581,56.2719,84.09,72,0,5.5,clear sky
287,Dudinka,RU,69.4058,86.1778,29.62,91,85,11.1,overcast clouds
288,Kahului,US,20.8947,-156.47,80.62,64,40,18.41,scattered clouds
289,Braco Do Norte,BR,-28.275,-49.1656,68.52,76,0,3.71,clear sky
290,Gambela,ET,8.25,34.5833,72.95,85,86,2.48,overcast clouds
291,Sobolevo,RU,54.4299,31.8996,52.56,80,99,5.79,overcast clouds
292,Arrifes,PT,37.7667,-25.7,61.05,63,75,8.05,broken clouds
293,Ust-Ilimsk,RU,58.0006,102.6619,52.72,93,97,9.4,light rain
294,Vestmanna,FO,62.1564,-7.1664,45.52,81,40,9.22,light rain
295,Potosi,BO,-19.5836,-65.7531,53.37,13,49,3.2,scattered clouds
296,Port Hedland,AU,-20.3167,118.5667,69.85,88,75,6.91,broken clouds
297,Naze,JP,28.3667,129.4833,67.12,90,100,8.63,overcast clouds
298,Margate,GB,51.3813,1.3862,56.7,84,22,3.0,few clouds
299,Bambous Virieux,MU,-20.3428,57.7575,71.22,94,40,3.44,scattered clouds
300,Nogliki,RU,51.8333,143.1667,43.7,80,2,11.48,clear sky
301,Villa Juarez,MX,24.6536,-107.5411,94.71,48,0,5.75,clear sky
302,Nikolskoye,RU,59.7035,30.7861,46.29,69,77,4.79,broken clouds
303,San Patricio,US,28.017,-97.5169,87.69,68,99,12.66,overcast clouds
304,Khandyga,RU,62.6667,135.6,37.27,76,92,2.33,overcast clouds
305,Ola,RU,59.5833,151.2833,39.15,98,100,10.47,light rain
306,Ongandjera,NA,-17.8833,15.0667,64.99,26,0,6.98,clear sky
307,Nabire,ID,-3.3667,135.4833,75.97,92,100,3.24,overcast clouds
308,Aasiaat,GL,68.7098,-52.8699,33.3,71,99,14.36,overcast clouds
309,Jiwani,PK,25.05,61.7417,83.7,87,0,4.88,clear sky
310,Conde,BR,-7.2597,-34.9075,74.66,94,0,8.05,clear sky
311,Kiruna,SE,67.8557,20.2251,54.52,50,100,5.75,overcast clouds
312,Dunedin,NZ,-45.8742,170.5036,44.8,60,64,4.0,broken clouds
313,Chivilcoy,AR,-34.8957,-60.0167,51.31,63,100,7.49,overcast clouds
314,Seymchan,RU,62.8833,152.4333,46.11,72,100,4.79,overcast clouds
315,La Rioja,ES,42.25,-2.5,49.78,98,64,5.01,broken clouds
316,Casablanca,MA,33.5928,-7.6192,66.42,72,44,8.63,scattered clouds
317,Sao Desiderio,BR,-12.3633,-44.9733,76.8,42,13,4.72,few clouds
318,Domoni,KM,-12.2569,44.5319,77.9,79,5,7.76,clear sky
319,Namibe,AO,-15.1961,12.1522,67.28,74,0,6.93,clear sky
320,Digby,CA,44.6169,-65.7655,63.55,61,9,10.89,clear sky
321,Provideniya,RU,64.3833,-173.3,33.91,93,100,4.47,mist
322,Richards Bay,ZA,-28.783,32.0377,64.98,80,0,4.7,clear sky
323,Lubango,AO,-14.9172,13.4925,55.8,29,2,4.63,clear sky
324,Kuryk,KZ,43.2,51.65,59.9,55,96,8.77,overcast clouds
325,Santa Fe,AR,-31.6333,-60.7,53.02,88,100,15.01,light rain
326,Ixtapa,MX,20.7,-105.2,83.43,61,0,14.97,clear sky
327,Samana,DO,19.2056,-69.3369,86.22,74,40,11.5,scattered clouds
328,Kununurra,AU,-15.7667,128.7333,66.18,82,74,0.0,broken clouds
329,Nautla,MX,20.2167,-96.7833,88.9,60,74,12.3,broken clouds
330,Thinadhoo,MV,0.5333,72.9333,82.81,71,78,4.63,broken clouds
331,Te Anau,NZ,-45.4167,167.7167,35.94,91,14,1.77,few clouds
332,Kysyl-Syr,RU,63.8986,122.7617,38.26,76,100,9.98,overcast clouds
333,Sibolga,ID,1.7427,98.7792,76.57,82,100,3.67,overcast clouds
334,Lanja,IN,16.85,73.55,78.49,83,90,2.15,overcast clouds
335,Bereda,ES,43.2686,-7.5406,55.42,97,13,4.29,few clouds
336,Nanortalik,GL,60.1432,-45.2371,34.39,77,7,15.66,clear sky
337,Talavera,PH,15.6167,120.9333,76.84,87,100,2.44,overcast clouds
338,Halifax,CA,44.6453,-63.5724,64.29,44,75,17.27,broken clouds
339,Mareeba,AU,-17.0,145.4333,65.12,98,21,2.19,few clouds
340,Belmonte,BR,-15.8631,-38.8828,73.58,81,5,12.46,clear sky
341,Itarema,BR,-2.9248,-39.9167,77.36,87,14,8.61,few clouds
342,Agua Branca,BR,-5.8922,-42.6361,76.91,69,68,6.29,broken clouds
343,Maldonado,UY,-34.6667,-54.9167,52.99,89,100,17.27,overcast clouds
344,Juneau,US,58.3019,-134.4197,55.4,80,75,13.8,broken clouds
345,Mutoko,ZW,-17.397,32.2268,58.39,53,0,2.82,clear sky
346,Rovaniemi,FI,66.5,25.7167,58.41,33,0,8.05,clear sky
347,Westport,US,41.1415,-73.3579,72.95,64,0,12.66,clear sky
348,Itapaci,BR,-14.9508,-49.5494,74.8,34,0,4.32,clear sky
349,Hasaki,JP,35.7333,140.8333,63.28,77,3,7.29,clear sky
350,Minot,US,48.2325,-101.2963,73.62,27,20,8.05,few clouds
351,Byron Bay,AU,-28.65,153.6167,59.7,91,52,7.74,light rain
352,Thompson,CA,55.7435,-97.8558,57.36,38,75,10.36,broken clouds
353,Mirabad,AF,30.4362,61.8383,86.74,22,21,19.86,few clouds
354,Tura,IN,25.5198,90.2201,71.28,93,46,3.91,scattered clouds
355,Jacareacanga,BR,-6.2222,-57.7528,77.32,88,77,2.59,broken clouds
356,Rawson,AR,-43.3002,-65.1023,47.32,28,0,12.73,clear sky
357,Puerto Asis,CO,0.5133,-76.5007,77.61,76,91,4.56,overcast clouds
358,Skjervoy,NO,70.0311,20.9714,55.4,63,39,13.78,scattered clouds
359,Kampot,KH,10.6167,104.1833,84.25,84,100,8.41,overcast clouds
360,Bathsheba,BB,13.2167,-59.5167,84.81,70,20,16.11,few clouds
361,Airai,TL,-8.9266,125.4092,58.41,94,100,2.59,overcast clouds
362,Cockburn Town,TC,21.4612,-71.1419,80.56,65,40,13.8,scattered clouds
363,Puerto Escondido,MX,15.85,-97.0667,86.83,62,100,14.97,overcast clouds
364,Inhambane,MZ,-23.865,35.3833,69.71,84,0,3.24,clear sky
365,Sorland,NO,67.667,12.6934,48.06,87,97,19.86,overcast clouds
366,Carutapera,BR,-1.195,-46.02,76.66,93,50,7.11,scattered clouds
367,Teruel,ES,40.6667,-0.6667,41.31,79,11,9.4,few clouds
368,Davila,PH,18.4726,120.5763,76.98,79,91,5.59,overcast clouds
369,Havoysund,NO,70.9963,24.6622,52.03,49,19,15.48,few clouds
370,Sao Paulo De Olivenca,BR,-3.3783,-68.8725,81.12,86,81,2.62,broken clouds
371,Clyde River,CA,70.4692,-68.5914,19.63,93,75,21.85,light snow
372,Cedar City,US,37.6775,-113.0619,79.39,14,0,8.63,clear sky
373,Biak,ID,-0.9131,122.8766,77.0,87,95,6.8,overcast clouds
374,Faya,SA,18.3851,42.4509,70.32,51,56,6.82,light rain
375,San Juan,AR,-31.5375,-68.5364,51.67,60,98,19.48,overcast clouds
376,Broome,US,42.2506,-75.833,77.09,51,97,5.99,overcast clouds
377,Saint-Augustin,CA,51.226,-58.6502,56.8,50,100,25.64,overcast clouds
378,Berkak,NO,62.825,10.0118,43.03,94,100,7.34,overcast clouds
379,Saint-Philippe,RE,-21.3585,55.7679,69.39,77,10,3.4,clear sky
380,Bonfim,BR,3.0833,-59.95,87.75,68,58,8.1,broken clouds
381,Kudahuvadhoo,MV,2.6708,72.8944,82.38,74,84,7.94,broken clouds
382,Raudeberg,NO,61.9875,5.1352,48.87,86,98,12.41,overcast clouds
383,Atambua,ID,-9.1061,124.8925,72.55,90,100,4.41,overcast clouds
384,General Pico,AR,-35.6566,-63.7568,54.01,46,54,8.99,broken clouds
385,Grants,US,35.1473,-107.8514,75.43,10,0,23.02,clear sky
386,Matagami,CA,49.7502,-77.6328,66.31,45,100,5.75,overcast clouds
387,Havelock,US,34.8791,-76.9013,73.35,62,25,5.32,scattered clouds
388,Shitanjing,CN,39.2342,106.3439,57.54,19,0,2.37,clear sky
389,Dolinsk,RU,47.35,142.8,45.41,92,100,3.51,overcast clouds
390,Klaksvik,FO,62.2266,-6.589,47.32,80,32,17.13,scattered clouds
391,Kyshtovka,RU,56.555,76.6271,66.6,58,75,6.31,broken clouds
392,Prachuap Khiri Khan,TH,12.2167,99.75,81.57,82,100,7.14,overcast clouds
393,Mandalgovi,MN,45.7625,106.2708,54.43,19,2,8.68,clear sky
394,Luderitz,NA,-26.6481,15.1594,57.63,81,6,6.4,clear sky
395,Arkansas City,US,37.062,-97.0384,57.34,94,100,13.8,moderate rain
396,Asau,RO,46.4333,26.4,61.72,97,25,5.23,scattered clouds
397,Sungairaya,ID,0.7,108.9,78.82,87,100,4.92,overcast clouds
398,Ucluelet,CA,48.9329,-125.5528,53.1,87,100,4.65,overcast clouds
399,Bukachacha,RU,52.9833,116.9167,52.07,42,9,1.83,clear sky
400,Ancud,CL,-41.8697,-73.8203,43.97,65,4,3.2,clear sky
401,Cancun,MX,21.1743,-86.8466,86.05,70,40,23.02,scattered clouds
402,Manawar,IN,22.2333,75.0833,87.58,51,0,18.86,clear sky
403,Mambolo,SL,8.9231,-13.0444,79.09,89,100,6.98,light rain
404,Lagos,NG,6.5833,3.75,80.92,85,37,3.0,scattered clouds
405,Mpika,ZM,-11.8343,31.4529,58.64,72,8,4.18,clear sky
406,Meerane,DE,50.85,12.4667,59.32,73,20,2.3,few clouds
407,Morros,BR,-9.4467,-46.3003,78.22,42,0,3.2,clear sky
408,Raglan,NZ,-37.8,174.8833,54.07,84,32,5.82,scattered clouds
409,Karpogory,RU,64.0019,44.4451,44.19,94,100,8.61,overcast clouds
410,Migori,KE,-1.0634,34.4731,61.63,94,97,4.32,light rain
411,Arlit,NE,18.7369,7.3853,89.69,12,58,6.24,broken clouds
412,Gizo,SB,-8.103,156.8419,81.97,77,30,5.57,scattered clouds
413,Baghmara,IN,23.795,86.2085,84.76,49,3,5.73,clear sky
414,Kaoma,ZM,-14.7833,24.8,54.84,43,0,3.38,clear sky
415,Huangmei,CN,30.1924,116.025,70.11,88,100,3.8,light rain
416,Ust-Omchug,RU,61.15,149.6333,36.03,100,100,1.95,light rain
417,Beloha,MG,-25.1667,45.05,67.17,91,0,1.14,clear sky
418,Cadiz,ES,36.5,-5.75,65.62,93,86,7.4,overcast clouds
419,Ponta Delgada,PT,37.7333,-25.6667,63.32,63,75,8.05,broken clouds
420,Port Shepstone,ZA,-30.7414,30.455,69.01,79,54,15.41,broken clouds
421,Mastic Beach,US,40.7668,-72.8521,66.54,58,0,14.97,clear sky
422,Salinopolis,BR,-0.6136,-47.3561,78.96,88,20,11.54,few clouds
423,Hirara,JP,24.8,125.2833,75.54,93,100,7.0,moderate rain
424,Umm Bab,QA,25.2142,50.8072,82.29,50,0,11.03,clear sky
425,Mpulungu,ZM,-8.7623,31.1141,72.88,57,59,2.46,broken clouds
426,Chamonix-Mont-Blanc,FR,45.9238,6.8693,61.59,83,91,2.39,overcast clouds
427,Magadi,IN,12.9667,77.2333,73.71,73,99,4.83,overcast clouds
428,Urusha,RU,54.05,122.9,51.21,69,60,2.17,broken clouds
429,Chulumani,BO,-16.4096,-67.5263,71.26,64,100,4.45,overcast clouds
430,Baykit,RU,61.67,96.37,44.87,95,91,4.47,overcast clouds
431,Acatlan,MX,20.15,-98.45,76.33,32,100,14.83,overcast clouds
432,Srednekolymsk,RU,67.45,153.6833,44.47,66,35,17.25,scattered clouds
433,Saint-Pierre,RE,-21.3393,55.4781,69.48,78,0,6.91,clear sky
434,Eyl,SO,7.9803,49.8164,80.22,78,48,21.9,scattered clouds
435,Maceio,BR,-9.6658,-35.7353,72.84,94,100,5.75,light rain
436,Opuwo,NA,-18.0607,13.84,60.22,30,0,7.02,clear sky
437,Axim,GH,4.8699,-2.2405,78.93,80,98,5.59,light rain
438,Orapa,BW,-21.2833,25.3667,62.8,39,0,7.07,clear sky
439,Ironton,US,38.5368,-82.6829,86.4,60,20,11.5,few clouds
440,Yumen,CN,40.2833,97.2,63.45,12,100,14.0,overcast clouds
441,Araguaina,BR,-7.1911,-48.2072,79.59,54,9,3.67,clear sky
442,Tecoanapa,MX,16.5167,-98.75,86.09,67,74,12.62,broken clouds
443,Bengkulu,ID,-3.8004,102.2655,74.53,84,100,3.83,overcast clouds
444,Northam,GB,51.0333,-4.2167,55.38,92,2,16.73,clear sky
445,Lata,PT,40.1629,-8.3327,55.0,89,50,1.95,scattered clouds
446,Nador,MA,35.174,-2.9287,66.45,82,75,6.91,broken clouds
447,Bilibino,RU,68.0546,166.4372,52.23,52,99,8.21,overcast clouds
448,Russell,US,32.3502,-85.1999,71.38,94,40,0.0,scattered clouds
449,Baruun-Urt,MN,46.6806,113.2792,54.61,30,4,5.53,clear sky
450,Quesnel,CA,52.9999,-122.5029,55.9,76,100,5.75,overcast clouds
451,Thunder Bay,CA,48.4001,-89.3168,46.38,87,100,8.05,overcast clouds
452,Vardo,NO,70.3705,31.1107,39.18,93,100,13.8,overcast clouds
453,Pimentel,PE,-6.8367,-79.9342,71.89,60,0,18.41,clear sky
454,Saint-Joseph,RE,-21.3667,55.6167,68.38,79,25,2.68,scattered clouds
455,Saint-Felicien,CA,48.6501,-72.4491,68.68,37,75,8.05,broken clouds
456,Fortuna,US,40.5982,-124.1573,69.93,68,0,13.8,clear sky
457,Sinnamary,GF,5.3833,-52.95,80.94,79,16,9.26,few clouds
458,Kupang,ID,-10.1667,123.5833,77.43,83,98,8.41,overcast clouds
459,Lakshmipur,BD,22.95,90.8333,81.1,81,29,5.14,scattered clouds
460,Bestobe,KZ,52.4994,73.0975,64.65,40,74,8.21,broken clouds
461,Lethem,GY,3.3803,-59.7968,87.85,66,40,13.8,scattered clouds
462,Caravelas,BR,-17.7125,-39.2481,70.36,89,0,8.93,clear sky
463,Hami,CN,42.8,93.45,78.53,12,100,7.23,overcast clouds
464,Kailua,US,21.4022,-157.7394,82.38,62,0,7.0,clear sky
465,Mirnyy,RU,62.5353,113.9611,35.24,69,100,7.0,overcast clouds
466,Xining,CN,36.6167,101.7667,54.77,79,100,1.43,moderate rain
467,Rognan,NO,67.0953,15.3878,51.76,83,100,2.89,overcast clouds
468,Pemangkat,ID,1.1667,108.9667,80.04,80,100,5.03,overcast clouds
469,Doaba,PK,33.4244,70.7364,76.8,38,0,4.32,clear sky
470,Pauini,BR,-7.7136,-66.9764,81.63,66,88,2.93,overcast clouds
471,Zyryanka,RU,65.75,150.85,52.97,55,85,12.8,overcast clouds
472,Altay,CN,47.8667,88.1167,72.95,33,100,1.74,overcast clouds
473,Touros,BR,-5.1989,-35.4608,77.43,83,61,9.28,broken clouds
474,Ketchikan,US,55.3422,-131.6461,59.47,47,20,9.22,few clouds
475,Nome,US,64.5011,-165.4064,54.1,70,0,13.8,clear sky
476,Aswan,EG,24.0934,32.907,85.3,13,0,8.05,clear sky
477,Dwarka,IN,22.2394,68.9678,81.9,82,5,14.54,clear sky
478,Cardoso,BR,-20.0819,-49.9142,73.04,38,2,6.2,clear sky
479,Sept-Iles,CA,50.2001,-66.3821,64.92,34,40,8.05,scattered clouds
480,Mana,GF,5.6592,-53.7767,80.51,83,13,9.01,few clouds
481,Pangkalanbuun,ID,-2.6833,111.6167,74.57,97,100,0.92,moderate rain
482,Bonthe,SL,7.5264,-12.505,76.21,88,100,8.52,moderate rain
483,Okha,RU,53.5739,142.9478,43.75,84,89,8.19,overcast clouds
484,Itanagar,IN,27.1,93.6167,72.91,86,97,2.15,overcast clouds
485,Jeremie,HT,18.65,-74.1167,82.56,69,23,4.18,few clouds
486,Dingle,PH,10.9995,122.6711,77.92,87,99,2.44,overcast clouds
487,Taybad,IR,34.74,60.7756,71.44,38,0,20.27,clear sky
488,Gladstone,AU,-23.85,151.25,62.53,88,94,4.61,overcast clouds
489,Shimanovsk,RU,52.0,127.7,56.75,57,48,6.35,scattered clouds
490,Butajira,ET,8.1167,38.3667,61.7,56,76,1.72,broken clouds
491,Manokwari,ID,-0.8667,134.0833,77.56,80,100,3.76,heavy intensity rain
492,Coolum Beach,AU,-26.5333,153.1,63.34,98,86,8.21,overcast clouds
493,Kuruman,ZA,-27.4524,23.4325,57.33,46,0,3.31,clear sky
494,Aksu,CN,41.1231,80.2644,74.41,31,31,7.02,scattered clouds
495,Elizabeth City,US,36.2946,-76.2511,64.02,95,100,12.66,mist
496,Coihaique,CL,-45.5752,-72.0662,36.21,69,20,0.0,few clouds
497,Evensk,RU,61.95,159.2333,40.01,87,100,1.74,overcast clouds
498,Homer,US,59.6425,-151.5483,52.77,79,40,11.99,scattered clouds
499,Prado,BR,-17.3411,-39.2208,71.78,86,0,9.66,clear sky
500,Catuday,PH,16.2923,119.8062,79.74,81,92,7.45,overcast clouds
501,Nantucket,US,41.2835,-70.0995,59.14,47,0,12.66,clear sky
502,Newport,GB,51.5877,-2.9984,56.68,86,2,9.4,clear sky
503,Calama,CL,-22.4667,-68.9333,70.29,3,0,19.57,clear sky
504,Kolvereid,NO,64.8655,11.6047,45.63,78,100,3.06,overcast clouds
505,Sechura,PE,-5.5569,-80.8222,75.51,60,32,13.89,scattered clouds
506,Meulaboh,ID,4.1363,96.1285,76.68,86,93,4.25,overcast clouds
507,Muisne,EC,0.6,-80.0333,78.22,81,76,9.66,broken clouds
508,Vostok,RU,46.4856,135.8833,54.03,93,95,3.38,overcast clouds
509,Wum,CM,6.3833,10.0667,64.36,94,64,3.11,light rain
510,Normandin,CA,48.8333,-72.5321,68.31,47,100,8.55,overcast clouds
511,Turan,VN,16.0678,108.2208,80.58,83,20,1.14,few clouds
512,Bull Savanna,JM,17.8868,-77.5902,82.69,63,39,19.15,scattered clouds
513,Puerto Carreno,CO,6.189,-67.4859,80.58,83,40,4.61,scattered clouds
514,Mizan Teferi,ET,6.9833,35.5833,60.13,97,100,2.46,overcast clouds
515,Jadu,LY,31.953,12.0261,79.93,13,2,13.44,clear sky
516,Manaure,CO,11.7751,-72.4445,86.9,60,100,14.16,overcast clouds
517,Laharpur,IN,27.7167,80.9,81.63,39,22,5.41,few clouds
518,Bainbridge,US,47.6262,-122.5212,71.24,56,0,11.01,clear sky
519,Doha,QA,25.2867,51.5333,89.58,22,0,11.5,clear sky
520,Liwale,TZ,-9.7667,37.9333,68.0,88,73,1.63,broken clouds
521,Port Macquarie,AU,-31.4333,152.9167,53.89,91,93,4.72,overcast clouds
522,Severo-Yeniseyskiy,RU,60.3725,93.0408,40.24,93,6,3.02,clear sky
523,West Wendover,US,40.7391,-114.0733,78.01,17,0,12.66,clear sky
524,Tanabi,BR,-20.6264,-49.6492,77.22,41,0,7.18,clear sky
525,Okhotsk,RU,59.3833,143.3,35.47,95,100,5.53,overcast clouds
526,Artesia,US,33.8658,-118.0831,90.48,66,0,9.22,clear sky
527,Keuruu,FI,62.2667,24.7,59.18,80,92,3.62,overcast clouds
528,Andenes,NO,69.3143,16.1194,55.38,67,75,11.5,broken clouds
529,Am Timan,TD,11.0297,20.2827,89.4,37,85,4.88,overcast clouds
530,Ust-Tsilma,RU,65.441,52.1498,50.47,92,100,9.98,light rain
531,Boa Vista,BR,2.8197,-60.6733,84.18,74,20,4.61,few clouds
532,Kiunga,PG,-6.1219,141.2906,71.67,99,86,1.25,overcast clouds
533,Atasu,KZ,48.6814,71.6433,64.83,36,0,3.42,clear sky
534,Neryungri,RU,56.6709,124.6491,43.97,93,100,0.69,overcast clouds
535,Otacilio Costa,BR,-27.4831,-50.1219,56.77,88,3,1.39,clear sky
536,La Asuncion,VE,11.0333,-63.8628,83.93,79,86,17.27,overcast clouds
537,Bosaso,SO,11.2842,49.1816,84.24,77,0,2.39,clear sky
538,Hamilton,US,39.1834,-84.5333,84.65,71,20,9.22,few clouds
539,Omboue,GA,-1.5746,9.2618,75.16,86,56,8.05,broken clouds
540,Nagato,JP,34.3833,131.2,67.19,94,100,6.02,overcast clouds
541,College,US,64.8569,-147.8028,65.46,38,75,13.8,broken clouds
542,Tra Vinh,VN,9.9347,106.3453,78.44,88,100,7.78,overcast clouds
543,Amga,RU,60.8953,131.9608,36.63,85,100,7.74,overcast clouds
544,Woodward,US,36.4337,-99.3904,52.83,96,100,16.11,moderate rain
545,Martorell,ES,41.474,1.9306,68.52,63,0,5.01,clear sky
546,Santa Cruz De La Palma,ES,28.6835,-17.7642,68.14,77,75,14.97,broken clouds
547,Kontagora,NG,10.3999,5.4695,83.16,49,52,2.77,broken clouds
548,Santa Maria,BR,-29.6842,-53.8069,65.5,82,40,0.0,scattered clouds
549,Neustadt,DE,49.7117,12.0872,55.98,72,69,4.14,broken clouds
550,Waiouru,NZ,-39.4833,175.6667,42.66,82,69,2.35,broken clouds
551,Sioux Lookout,CA,50.1001,-91.917,62.67,45,100,14.97,overcast clouds
552,Kuusamo,FI,65.9667,29.1833,48.24,46,0,8.05,clear sky
553,Talas,TR,38.6908,35.5538,50.67,62,0,4.61,clear sky
554,Tottori,JP,35.5,134.2333,73.47,60,100,9.22,overcast clouds
555,Fuling,CN,29.7022,107.3919,70.41,98,100,3.0,overcast clouds
556,Tahta,EG,26.7693,31.5021,82.06,16,0,9.26,clear sky
557,Maridi,SS,4.9158,29.4742,65.32,93,99,1.88,overcast clouds
558,Helena,US,46.5927,-112.0361,72.18,37,75,12.66,broken clouds
559,Mbandaka,CD,0.0487,18.2603,73.15,89,100,3.13,overcast clouds
560,Belyy Yar,RU,53.6039,91.3903,64.29,62,0,4.47,clear sky
561,Alyangula,AU,-13.8483,136.4192,74.41,77,14,6.98,few clouds
562,Stanari,BA,44.7472,17.8294,65.08,97,73,2.37,broken clouds
563,Olafsvik,IS,64.8945,-23.7142,42.69,84,100,7.34,overcast clouds
564,Cooma,AU,-36.2333,149.1333,37.17,100,100,8.05,overcast clouds
565,Forbes,AU,-33.3833,148.0167,57.92,85,92,4.81,overcast clouds
566,Tazovskiy,RU,67.4667,78.7,31.21,86,9,6.87,clear sky
567,Kiboga,UG,0.9161,31.7742,60.26,97,94,1.19,light rain
568,Marzuq,YE,14.4,46.4667,76.21,41,7,2.21,clear sky
569,Borovoy,RU,55.4333,86.0833,63.68,63,0,13.42,clear sky
570,Myaundzha,RU,63.0494,147.1858,32.65,83,76,3.85,broken clouds
571,Taltal,CL,-25.4,-70.4833,64.9,64,50,1.32,scattered clouds
572,Khandbari,NP,27.3747,87.2039,67.55,84,79,2.95,broken clouds
573,Zhicheng,CN,30.2956,111.5047,65.26,95,100,5.32,overcast clouds
574,North Platte,US,41.1239,-100.7654,67.89,40,20,23.02,few clouds
575,Vidim,RU,56.4088,103.1106,49.23,76,33,2.93,light rain
576,Mustasaari,FI,63.1142,21.6822,56.23,94,100,3.44,light intensity shower rain
577,Hervey Bay,AU,-25.2986,152.8535,63.01,96,85,3.0,overcast clouds
578,Lavrentiya,RU,65.5833,-171.0,40.06,84,100,7.27,overcast clouds
579,Amapa,BR,1.0,-52.0,76.17,98,14,3.38,few clouds
580,Orlandia,BR,-20.7203,-47.8867,71.74,56,0,5.93,clear sky
581,Punta Alta,AR,-38.8759,-62.0736,48.18,45,0,5.68,clear sky
582,Kirakira,SB,-10.4544,161.9205,80.82,82,11,5.53,few clouds
583,Samarai,PG,-10.6167,150.6667,79.39,78,55,7.05,broken clouds
584,Soure,BR,-0.7167,-48.5233,78.84,84,84,7.61,broken clouds
585,Mopti,ML,14.6667,-4.0,95.04,38,0,2.3,clear sky
586,Lenger,KZ,42.183,69.8839,63.84,27,11,6.8,few clouds
587,Moose Factory,CA,51.2585,-80.6094,48.2,71,0,11.5,clear sky
588,Sorada,IN,19.75,84.4333,82.38,55,23,1.95,few clouds
589,Muscat,OM,23.6139,58.5922,98.62,35,0,9.28,clear sky
590,Maues,BR,-3.3836,-57.7186,81.18,75,85,3.18,light rain
591,Hambantota,LK,6.1241,81.1185,79.14,100,20,12.66,few clouds
592,Aracati,BR,-4.5617,-37.7697,77.5,80,100,6.46,overcast clouds
593,Cocobeach,GA,1.0002,9.5823,78.3,78,100,6.51,overcast clouds
594,Kadhan,PK,24.481,68.9859,82.78,77,0,16.55,clear sky
595,Narsaq,GL,60.9167,-46.05,46.62,47,37,2.64,scattered clouds
596,Harper,LR,4.375,-7.7169,78.28,83,99,7.2,light rain
597,Zavallya,UA,48.2135,30.0156,59.79,45,77,15.61,broken clouds
598,Benghazi,LY,32.1167,20.0667,77.49,40,0,11.03,clear sky
599,Tutoia,BR,-2.7619,-42.2744,77.94,88,6,6.29,clear sky
600,Yar-Sale,RU,66.8333,70.8333,35.47,78,84,11.03,broken clouds
601,Husavik,IS,66.0449,-17.3389,42.48,91,94,5.82,overcast clouds
602,Marabba,SD,12.35,32.1833,91.35,26,100,6.55,overcast clouds
603,Shetpe,KZ,44.1667,52.1167,57.7,52,100,7.76,overcast clouds
604,San Gabriel,US,34.0961,-118.1058,93.65,50,0,10.36,haze
605,Qaqortoq,GL,60.7167,-46.0333,39.31,60,18,16.13,few clouds
606,Venice,US,27.0998,-82.4543,89.98,65,0,10.36,clear sky
607,Petropavlovsk-Kamchatskiy,RU,53.0452,158.6483,37.99,100,100,4.47,light intensity drizzle
608,Yangjiang,CN,21.85,111.9667,75.7,95,97,2.04,overcast clouds
609,Banjar,ID,-8.19,114.9675,77.81,89,97,3.4,overcast clouds
610,Chernyshevskiy,RU,63.0128,112.4714,35.83,69,62,8.59,broken clouds
611,Manthani,IN,18.65,79.6667,88.66,42,34,2.59,scattered clouds
612,Manzhouli,CN,49.6,117.4333,57.72,33,6,5.48,clear sky
613,Mtambile,TZ,-5.3833,39.7,79.18,81,32,11.81,light rain
614,Campoverde,PE,-8.4753,-74.8058,76.69,53,24,0.89,few clouds
615,Kambove,CD,-10.8764,26.5969,57.02,52,38,3.69,scattered clouds
616,Pangnirtung,CA,66.1451,-65.7125,26.6,68,75,12.66,broken clouds
617,Ayan,RU,56.45,138.1667,38.77,88,100,3.27,light rain
618,Papetoai,PF,-17.4961,-149.8729,81.99,68,4,9.6,clear sky
619,West Fargo,US,46.875,-96.9004,62.98,48,100,12.66,overcast clouds
620,Flinders,AU,-34.5833,150.8552,52.25,93,100,3.0,overcast clouds
621,Tiarei,PF,-17.5333,-149.3333,82.42,73,21,11.79,few clouds
622,Kankon,IN,15.0167,74.0167,82.2,84,100,8.86,overcast clouds
623,Kibakwe,TZ,-6.7167,36.3667,63.39,86,96,3.78,overcast clouds
624,Tuy Hoa,VN,13.0833,109.3,77.97,87,100,5.84,overcast clouds
625,Piopio,NZ,-38.4667,175.0167,47.08,88,14,1.32,few clouds
626,Shakawe,BW,-18.3667,21.85,56.41,38,0,2.1,clear sky
627,Mitsamiouli,KM,-11.3847,43.2844,79.83,72,33,6.58,scattered clouds
628,Kimberley,ZA,-28.7323,24.7623,51.49,62,0,4.61,clear sky
629,Panzhihua,CN,26.5851,101.7128,71.17,91,75,1.74,broken clouds
630,Benguela,AO,-12.5763,13.4055,70.41,79,3,2.82,clear sky
631,Lagoa,PT,39.05,-27.9833,61.36,78,0,12.44,clear sky
632,Bodaybo,RU,57.8506,114.1933,52.72,85,100,2.1,light rain
633,Yerbogachen,RU,61.2767,108.0108,44.92,72,100,10.09,overcast clouds
634,Bongor,TD,10.2806,15.3722,89.85,37,20,6.89,few clouds
635,Beira,MZ,-19.8436,34.8389,66.29,94,0,6.91,clear sky
636,Vega De Alatorre,MX,20.0333,-96.6333,87.89,64,76,9.93,broken clouds
637,Lerwick,GB,60.1545,-1.1494,48.56,86,22,20.54,few clouds
638,Cozumel,MX,20.5083,-86.9458,87.87,82,75,16.11,broken clouds
639,Anito,PH,12.4497,125.2886,77.52,92,100,4.74,overcast clouds
640,Fengxian,CN,34.7039,116.5872,58.64,43,97,3.58,overcast clouds
641,Cadillac,US,44.2519,-85.4012,58.8,94,100,14.97,light intensity drizzle
642,Osoyoos,CA,49.0331,-119.4524,75.04,39,56,8.05,broken clouds
643,Labuhan,ID,-6.8844,112.2051,79.25,85,100,5.3,overcast clouds
644,Pakpattan,PK,30.341,73.3866,87.71,32,0,6.85,clear sky
645,Blythe,US,33.6103,-114.5964,105.03,10,0,12.66,clear sky
646,San Jose,US,37.3394,-121.895,101.48,28,75,13.8,smoke
647,Sao Mateus,BR,-18.7161,-39.8589,69.03,85,6,4.94,clear sky
648,Zilair,RU,52.2332,57.4392,45.88,83,54,1.63,broken clouds
649,Veydelevka,RU,50.1521,38.4492,49.73,88,42,7.18,scattered clouds
650,Zunyi,CN,27.6867,106.9072,68.27,99,100,2.15,overcast clouds
651,Speightstown,BB,13.25,-59.65,84.81,72,96,13.96,overcast clouds
652,Kyzyl-Suu,KG,42.3414,78.0056,56.39,50,8,5.79,clear sky
653,San Policarpo,PH,12.1791,125.5072,80.65,83,97,6.04,overcast clouds
654,Porto Santo,PT,33.072,-16.3415,64.78,72,75,8.05,broken clouds
655,Garmsar,IR,35.2182,52.3409,70.72,37,0,5.59,clear sky
656,Port Keats,AU,-14.25,129.55,70.84,42,76,7.65,broken clouds
657,Maumere,ID,-8.6199,122.2111,79.54,84,100,4.61,overcast clouds
658,Cleveland,US,41.4995,-81.6954,77.47,62,100,11.5,overcast clouds
659,Kodinsk,RU,58.6881,99.1844,48.15,98,17,6.6,few clouds
660,Bagotville,AU,-28.9833,153.4167,59.63,96,36,5.86,scattered clouds
661,Belfast,GB,54.5833,-5.9333,53.42,67,40,16.11,scattered clouds
662,Sorong,ID,-0.8833,131.25,75.6,90,100,3.51,overcast clouds
663,Gobabis,NA,-22.45,18.9667,59.49,27,0,10.47,clear sky
664,Sistranda,NO,63.7256,8.834,48.16,89,100,12.24,overcast clouds
665,Pemba,MZ,-12.974,40.5178,77.7,94,40,11.34,scattered clouds
666,Erzin,TR,36.9559,36.2,66.49,63,0,3.22,clear sky
667,Lamu,KE,-2.2717,40.902,79.02,84,82,13.71,broken clouds
668,Mbigou,GA,-1.9005,11.906,68.29,97,89,2.59,light rain
669,Hualmay,PE,-11.0964,-77.6139,66.69,77,42,8.12,scattered clouds
670,Berlevag,NO,70.8578,29.0864,51.8,66,0,4.61,clear sky
671,Carballo,ES,43.213,-8.691,60.01,89,21,5.23,few clouds
672,Domna,RU,51.8971,113.1573,39.36,75,1,4.47,clear sky
673,Oistins,BB,13.0667,-59.5333,84.29,70,20,16.11,few clouds
674,Vanavara,RU,60.34,102.2797,45.09,90,97,8.9,overcast clouds
675,Teya,RU,60.3778,92.6267,44.08,88,7,3.38,clear sky
676,Zavetnoye,RU,47.1194,43.8903,55.22,69,75,8.08,broken clouds
677,Staraya Poltavka,RU,50.4772,46.4814,46.33,65,84,4.9,broken clouds
678,Srandakan,ID,-7.9386,110.2506,77.11,87,100,3.87,overcast clouds
679,Namatanai,PG,-3.6667,152.4333,79.59,78,100,4.68,overcast clouds
680,Moctezuma,MX,29.8,-109.6667,95.72,10,0,5.01,clear sky
681,Bara,NG,10.3744,10.7288,88.14,33,19,5.14,few clouds
682,Seoul,KR,37.5683,126.9778,56.64,94,20,2.3,few clouds
683,Iskateley,RU,67.6803,53.1512,49.35,71,100,17.36,overcast clouds
684,Riyadh,SA,24.6877,46.7219,86.14,18,0,7.92,clear sky
